Id,Name,BillingGeocodeAccuracy,BillingCity,BillingCountry,BillingLatitude,BillingLongitude,BillingPostalCode,BillingState,BillingStreet,Phone,Type,IsPersonAccount
0013h000009kVq2AAE,DevTech,Address,Arlington,United States,38.89531,-77.071876,22209,VA,1700 North Moore Street,555-555-5555,Vendor,false
0013h000007kZASAA2,Salesforce,,,,,,,,,,,false
0013h000004qG3GAAU,Aerospace Services,Zip,Montgomery,,32.4067,-86.2478,36114,Alabama,32654 Bayside Center,230-555-3883,Vendor,false
0013h000004qG3JAAU,BAE Systems,Block,Madison,,43.155746,-89.373646,53779,Wisconsin,2589 Shoshone Drive,800-349-3891,Vendor,false
0013h000004qG3SAAU,DLQ System Integrators,,New Haven,,,,6520,Connecticut,555 Heath Terrace,800-349-3895,Vendor,false
0013h000004qG3UAAU,GDIT,Zip,Las Vegas,,36.1275,-115.3293,89135,Nevada,2388 Merchant Trail,800-349-3896,Vendor,false
0013h000004qG3VAAU,Government Shared Services,Zip,Monticello,,45.3055,-93.7938,55585,Minnesota,66 Ludington Center,800-234-3471,Vendor,false
